City,Lat,Lng,Max Temp,Humidity,Cloudiness,Wind Speed,Country,Date
Hay River,60.8156,-115.7999,85.98,32,75,6.91,CA,1660851476
Iquique,-20.2208,-70.1431,62.64,73,19,8.19,CL,1660851238
Oranjemund,-28.55,16.4333,54.12,88,2,15.23,NA,1660851481
Ushuaia,-54.8,-68.3,42.46,61,75,5.75,AR,1660851483
Jamestown,42.097,-79.2353,79.95,45,75,6.91,US,1660851309
Wakkanai,45.4094,141.6739,64.22,82,0,14.52,JP,1660851488
Arraial do Cabo,-22.9661,-42.0278,82.26,51,0,25.32,BR,1660851491
Yumen,40.2833,97.2,66.99,26,0,4.97,CN,1660851493
Mount Isa,-20.7333,139.5,63.81,17,11,10.45,AU,1660851496
Suffolk,40.8668,-72.7996,85.91,52,0,11.5,US,1660851498
Hobart,-42.8794,147.3294,46.26,80,76,13.8,AU,1660851371
Dalvik,65.9702,-18.5286,53.53,80,100,6.8,IS,1660851503
Whitehorse,60.7161,-135.0538,64.09,47,75,12.66,CA,1660851505
Puerto del Rosario,28.5004,-13.8627,74.95,73,0,18.41,ES,1660851508
Nuevo Progreso,23.1667,-97.95,97.54,40,1,8.99,MX,1660851510
Mar del Plata,-38.0023,-57.5575,50.95,61,40,20.0,AR,1660851459
Luanda,-8.8368,13.2343,71.6,78,5,8.05,AO,1660851281
Barrow,71.2906,-156.7887,35.62,100,100,23.02,US,1660851517
Fare,-16.7,-151.0167,78.26,77,25,22.62,PF,1660851519
Lüderitz,-26.6481,15.1594,55.81,74,5,23.17,NA,1660851522
Departamento de Maldonado,-34.6667,-54.9167,49.39,67,61,17.47,UY,1660851524
Yellowknife,62.456,-114.3525,70.32,68,75,19.57,CA,1660851259
Labuhan,-6.8844,112.2051,76.46,86,53,7.92,ID,1660851529
Magistral'nyy,56.1725,107.4458,46.35,90,95,6.06,RU,1660851531
Puerto Ayora,-0.7393,-90.3518,76.96,90,87,5.99,EC,1660851534
Hithadhoo,-0.6,73.0833,81.45,78,100,13.2,MV,1660851536
Ondjiva,-17.0667,15.7333,67.6,14,3,5.41,AO,1660851539
Vaini,-21.2,-175.2,71.76,78,40,12.66,TO,1660851541
Erenhot,43.6475,111.9767,57.11,67,0,9.04,CN,1660851543
Busselton,-33.65,115.3333,56.32,78,98,8.81,AU,1660851546
Miles City,46.4083,-105.8406,85.17,28,0,11.5,US,1660851549
Mahébourg,-20.4081,57.7,70.25,78,20,6.91,MU,1660851552
Bredasdorp,-34.5322,20.0403,53.53,88,100,8.37,ZA,1660851554
Nanortalik,60.1432,-45.2371,41.79,74,1,14.47,GL,1660851557
Cherskiy,68.75,161.3,54.61,43,90,13.06,RU,1660851559
‘Āhuimanu,21.4447,-157.8378,85.71,72,75,11.5,US,1660851562
Enid,36.3956,-97.8784,87.48,34,20,13.8,US,1660851564
Río Gallegos,-51.6226,-69.2181,42.85,61,0,5.75,AR,1660851567
Bluff,-46.6,168.3333,48.18,94,6,9.22,NZ,1660851569
São Lourenço do Oeste,-26.3592,-52.8511,48.58,74,100,10.8,BR,1660851572
Kapaa,22.0752,-159.319,85.12,72,20,9.22,US,1660851519
Ca Mau,9.1769,105.15,79.2,82,100,4.54,VN,1660851577
George Town,5.4112,100.3354,79.9,86,20,2.3,MY,1660851579
Savalou,7.9281,1.9756,79.11,70,100,0.94,BJ,1660851582
St. George's,12.0564,-61.7485,87.48,66,20,10.27,GD,1660851584
Bo Rai,12.5728,102.5371,81.73,94,97,1.61,TH,1660851587
Punta Arenas,-53.15,-70.9167,44.71,65,100,13.8,CL,1660851446
Havøysund,70.9963,24.6622,52.03,71,46,9.78,NO,1660851591
Dikson,73.5069,80.5464,41.02,86,100,13.44,RU,1660851594
Thinadhoo,0.5333,72.9333,81.81,77,100,10.8,MV,1660851596
Pangnirtung,66.1451,-65.7125,42.8,87,75,9.22,CA,1660851599
Albany,42.6001,-73.9662,79.57,57,100,1.99,US,1660851307
Qaanaaq,77.484,-69.3632,37.44,98,100,2.51,GL,1660851603
Horsham,51.064,-0.3272,72.01,73,0,6.91,GB,1660851606
Mataura,-46.1927,168.8643,45.84,98,57,2.89,NZ,1660851609
Chapais,49.7834,-74.8492,76.78,34,100,4.16,CA,1660851612
Meulaboh,4.1363,96.1285,76.93,89,75,4.61,ID,1660851614
Butaritari,3.0707,172.7902,81.19,67,90,8.77,KI,1660851617
Grand Gaube,-20.0064,57.6608,70.38,75,0,1.99,MU,1660851619
Atuona,-9.8,-139.0333,77.25,73,1,22.62,PF,1660851622
Longyearbyen,78.2186,15.6401,44.44,70,75,24.16,SJ,1660851624
Ponta do Sol,32.6667,-17.1,74.03,53,57,4.88,PT,1660851627
Watertown,42.3709,-71.1828,84.51,39,100,14.0,US,1660851629
Nikolskoye,59.7035,30.7861,72.91,64,97,4.88,RU,1660851632
Sobolevo,54.4299,31.8996,66.18,73,0,6.8,RU,1660851634
Chokurdakh,70.6333,147.9167,53.1,72,100,10.51,RU,1660851636
Omboué,-1.5746,9.2618,73.63,87,27,8.72,GA,1660851640
Lodwar,3.1191,35.5973,85.14,37,12,8.68,KE,1660851642
Cowansville,45.2001,-72.7491,70.95,72,100,6.91,CA,1660851380
Kalmunai,7.4167,81.8167,77.14,85,96,9.51,LK,1660851646
Saskylakh,71.9167,114.0833,36.64,88,100,13.69,RU,1660851377
Avarua,-21.2078,-159.775,73.45,64,91,4.61,CK,1660851651
Puerto Escondido,15.85,-97.0667,85.17,73,99,7.18,MX,1660851653
Severo-Kuril'sk,50.6789,156.125,55.89,93,65,4.5,RU,1660851656
Tuktoyaktuk,69.4541,-133.0374,44.6,93,100,29.93,CA,1660851658
Lampang,18.3333,99.5,73.35,96,92,1.72,TH,1660851661
Port Alfred,-33.5906,26.891,56.17,95,93,1.99,ZA,1660851663
Cape Town,-33.9258,18.4232,57.61,78,75,12.66,ZA,1660851400
Fort Nelson,58.8053,-122.7002,76.59,50,20,5.75,CA,1660851668
Bethel,41.3712,-73.414,86.85,44,40,14.97,US,1660851670
Kaitangata,-46.2817,169.8464,46.51,96,10,4.29,NZ,1660851673
Palmer,42.1584,-72.3287,84.2,44,75,4.61,US,1660851605
San Nicolas,18.1725,120.5953,76.71,91,100,6.46,PH,1660851677
Lebu,-37.6167,-73.65,50.94,72,7,16.31,CL,1660851680
Gland,46.4208,6.2701,67.98,89,100,1.5,CH,1660851399
Oktyabr'skoye,43.0645,44.7417,75.34,60,75,11.18,RU,1660851685
Rotifunk,8.2333,-12.6833,73.85,95,69,3.53,SL,1660851687
Manono,-7.3,27.4167,78.04,27,7,3.87,CD,1660851690
Guerrero Negro,27.9769,-114.0611,81.86,55,91,13.53,MX,1660851692
Verkhnyaya Inta,65.9811,60.3094,54.64,57,89,12.41,RU,1660851695
Hermanus,-34.4187,19.2345,53.8,81,100,8.08,ZA,1660851697
Tasiilaq,65.6145,-37.6368,50.16,70,90,3.04,GL,1660851700
Hurghada,27.2574,33.8129,91.44,22,0,5.75,EG,1660851702
Saint-Philippe,-21.3585,55.7679,67.21,82,36,12.55,RE,1660851704
Usinsk,65.9939,57.5281,58.19,69,99,11.97,RU,1660851707
Turukhansk,65.8167,87.9833,44.02,77,7,9.98,RU,1660851709
Rikitea,-23.1203,-134.9692,73.78,72,99,18.25,PF,1660851509
Chaozhou,23.6651,116.6379,80.46,91,79,3.51,CN,1660851714
Ulaangom,49.9811,92.0667,51.33,55,59,4.97,MN,1660851716
Brae,60.3964,-1.353,55.89,95,86,12.46,GB,1660851719
Yar-Sale,66.8333,70.8333,49.06,80,100,7.07,RU,1660851721
Almaznyy,48.0448,40.045,76.95,51,83,3.96,RU,1660851724
Al Bardīyah,31.7561,25.0865,79.68,76,0,11.01,LY,1660851726
Salalah,17.0151,54.0924,77.09,94,100,4.61,OM,1660851729
Yacuiba,-22.038,-63.6797,63.37,55,0,17.27,BO,1660851731
Bambous Virieux,-20.3428,57.7575,70.21,78,20,6.91,MU,1660851734
Tamandaré,-8.7597,-35.1047,75.69,69,0,10.04,BR,1660851736
Athabasca,54.7169,-113.2854,79.21,43,2,7.74,CA,1660851650
Aldan,58.6031,125.3894,44.49,97,60,5.39,RU,1660851741
Romny,50.751,33.4747,67.75,64,2,9.46,UA,1660851744
Sheltozero,61.3667,35.3667,67.28,76,0,7.36,RU,1660851746
Vila Velha,-20.3297,-40.2925,80.55,72,40,16.11,BR,1660851749
Bodmin,50.4715,-4.7243,65.84,100,75,14.97,GB,1660851751
Itarema,-2.9248,-39.9167,80.33,69,100,17.31,BR,1660851754
Agadir,30.4202,-9.5982,72.05,71,2,4.18,MA,1660851756
Byron Bay,-28.65,153.6167,52.72,70,1,5.08,AU,1660851759
Warragul,-38.1667,145.9333,48.04,87,76,4.05,AU,1660851761
Rabo de Peixe,37.8,-25.5833,71.11,64,40,11.5,PT,1660851764
Jacksonville,30.3322,-81.6556,87.8,85,75,25.32,US,1660851545
Pisco,-13.7,-76.2167,66.02,72,28,10.36,PE,1660851768
Sairang,23.8,92.6667,74.84,99,86,1.88,IN,1660851771
Dunedin,-45.8742,170.5036,52.81,83,37,4.23,NZ,1660851602
Bixby,35.942,-95.8833,86.09,57,75,5.75,US,1660851661
Nador,35.174,-2.9287,80.67,69,0,4.61,MA,1660851777
San Luis Río Colorado,32.4631,-114.7767,102.25,34,100,8.75,MX,1660851780
Pozo Colorado,-23.4923,-58.7972,68.0,26,0,10.85,PY,1660851782
Katsuura,35.1333,140.3,75.87,87,5,13.33,JP,1660851785
Airai,-8.9266,125.4092,51.53,49,61,2.82,TL,1660851787
Durrës,41.3231,19.4414,75.38,61,0,5.93,AL,1660851790
Saldanha,-33.0117,17.9442,55.45,78,92,17.16,ZA,1660851793
Tiksi,71.6872,128.8694,41.27,95,100,11.86,RU,1660851795
Bouna,9.2667,-3.0,76.91,68,8,4.21,CI,1660851797
Hong Kong,22.2855,114.1577,83.32,88,98,5.01,HK,1660851558
Thompson,55.7435,-97.8558,73.56,60,75,10.36,CA,1660851802
Vitim,59.4511,112.5578,50.25,96,100,8.34,RU,1660851804
Vardø,70.3705,31.1107,49.98,87,0,4.61,NO,1660851807
Kamenka,51.3223,42.7678,71.22,50,100,21.81,RU,1660851810
Châteauroux,46.8167,1.7,71.6,53,0,4.61,FR,1660851724
Hobyo,5.3505,48.5268,76.71,83,100,26.4,SO,1660851814
Port Macquarie,-31.4333,152.9167,43.9,75,6,4.5,AU,1660851743
Saint Paul Harbor,57.79,-152.4072,54.91,76,100,4.61,US,1660851689
Port-Gentil,-0.7193,8.7815,76.96,78,100,9.22,GA,1660851821
Bull Savanna,17.8868,-77.5902,83.98,65,60,4.38,JM,1660851824
Jumla,29.2747,82.1838,62.13,95,44,0.22,NP,1660851595
Sørland,67.667,12.6934,55.26,78,100,15.5,NO,1660851829
Cabo San Lucas,22.8909,-109.9124,89.19,70,40,13.8,MX,1660864175
Sabang,5.8933,95.3214,82.53,75,100,11.83,ID,1660864323
Souillac,-20.5167,57.5167,69.03,82,1,10.16,MU,1660864326
Cuencamé de Ceniceros,24.8711,-103.6964,86.04,28,99,8.79,MX,1660864328
Sambava,-14.2667,50.1667,70.12,88,95,8.84,MG,1660864330
Glenwood Springs,39.5505,-107.3248,92.88,23,40,0.0,US,1660864219
Ilulissat,69.2167,-51.1,41.02,81,75,3.44,GL,1660864335
New Norfolk,-42.7826,147.0587,49.91,80,52,1.99,AU,1660864337
Port Lincoln,-34.7333,135.8667,54.3,72,16,13.49,AU,1660864340
Verāval,20.9,70.3667,79.14,88,67,15.86,IN,1660864342
Clyde River,70.4692,-68.5914,44.76,69,95,6.64,CA,1660864345
Goderich,43.7501,-81.7165,75.9,57,1,0.96,CA,1660864206
Ostrovnoy,68.0531,39.5131,50.2,91,100,7.67,RU,1660864349
Northam,51.0333,-4.2167,65.39,98,99,12.44,GB,1660864352
Husavik,66.0449,-17.3389,49.71,90,100,5.35,IS,1660864354
Macamic,48.7502,-78.9996,70.92,58,100,2.28,CA,1660864357
Faanui,-16.4833,-151.75,79.09,77,14,20.18,PF,1660864359
Sabha,27.0377,14.4283,88.48,21,0,10.22,LY,1660864362
San Rafael,-34.6177,-68.3301,53.08,26,0,8.16,AR,1660864237
Haines Junction,60.7522,-137.5108,59.97,57,100,7.4,CA,1660864366
Iqaluit,63.7506,-68.5145,37.13,100,100,8.05,CA,1660864369
Tromsø,69.6496,18.957,46.42,76,0,1.01,NO,1660864371
Itapirapuã,-15.8233,-50.6133,82.74,27,1,1.28,BR,1660864374
Kahului,20.8947,-156.47,91.42,49,40,20.71,US,1660864376
Saint-Joseph,-21.3667,55.6167,66.58,77,17,7.11,RE,1660864378
Kudahuvadhoo,2.6708,72.8944,81.68,75,100,4.9,MV,1660864381
Hasaki,35.7333,140.8333,79.2,69,33,10.02,JP,1660864383
Grindavik,63.8424,-22.4338,50.47,87,75,12.66,IS,1660864386
Puerto Carreño,6.189,-67.4859,81.01,77,62,6.31,CO,1660864388
Nanyang,32.9947,112.5328,84.31,62,100,2.91,CN,1660864391
Yangi Marg`ilon,40.4272,71.7189,70.52,37,0,4.61,UZ,1660864393
Badvel,14.75,79.05,81.48,69,100,14.54,IN,1660864396
Mogadishu,2.0371,45.3438,75.6,88,50,15.64,SO,1660864398
Uray,60.1247,64.7758,47.07,92,94,6.2,RU,1660864401
Cap-aux-Meules,47.3821,-61.8597,69.17,81,18,20.2,CA,1660864403
Upernavik,72.7868,-56.1549,40.24,90,100,0.31,GL,1660864405
Mehamn,71.0357,27.8492,49.95,71,12,13.8,NO,1660864408
Batemans Bay,-35.7167,150.1833,53.1,63,100,8.01,AU,1660864410
Vestmannaeyjar,63.4427,-20.2734,50.25,83,100,10.45,IS,1660864413
Urambo,-5.0667,32.05,75.76,32,93,3.85,TZ,1660864415
Heraclea,37.5133,34.0467,71.44,36,0,3.85,TR,1660864418
Kachug,53.9606,105.8817,44.6,94,85,3.53,RU,1660864420
Port Hawkesbury,45.6169,-61.3485,69.62,88,45,4.0,CA,1660864423
Leshukonskoye,64.8989,45.7622,62.74,77,19,5.03,RU,1660864425
San Patricio,28.017,-97.5169,94.17,55,97,15.68,US,1660864428
Jiazi,22.8779,116.067,81.27,83,88,8.41,CN,1660864430
Atbasar,51.8,68.3333,46.71,69,57,9.48,KZ,1660864432
Richards Bay,-28.783,32.0377,63.5,72,9,7.87,ZA,1660864435
Cody,44.5263,-109.0565,88.92,28,0,9.22,US,1660864278
Kavieng,-2.5744,150.7967,82.71,74,67,8.57,PG,1660864440
Kirakira,-10.4544,161.9205,83.82,67,19,6.29,SB,1660864442
Eureka,40.8021,-124.1637,71.2,83,68,4.0,US,1660864274
Naze,28.3667,129.4833,81.97,80,95,14.07,JP,1660864447
Batangafo,7.3008,18.2833,69.58,96,100,3.96,CF,1660864450
San Juan,-31.5375,-68.5364,55.49,18,0,5.66,AR,1660864424
Dali,25.7,100.1833,63.34,90,65,3.94,CN,1660864455
Ilave,-16.0833,-69.6667,40.1,25,1,6.2,PE,1660864457
Hamilton,39.1834,-84.5333,82.9,55,75,9.22,US,1660864460
Poum,-20.2333,164.0167,69.08,60,0,8.57,NC,1660864462
Marsaxlokk,35.8419,14.5431,86.07,74,0,8.05,MT,1660864464
Padang,-0.9492,100.3543,76.71,86,49,4.47,ID,1660864467
Muhafazat Lahij,13.1667,44.5833,86.92,54,31,1.28,YE,1660864470
Pevek,69.7008,170.3133,40.89,72,0,1.59,RU,1660864472
Shihezi,44.3,86.0333,67.17,22,0,5.86,CN,1660864475
Kargasok,59.0556,80.8572,51.76,77,100,11.07,RU,1660864477
Vernon,50.2581,-119.2691,100.13,25,65,3.44,CA,1660864480
Amapá,1.0,-52.0,78.91,69,95,4.63,BR,1660864482
Zemio,5.0314,25.1361,66.7,98,80,2.84,CF,1660864281
Camden,39.7835,-74.9663,84.15,48,28,1.99,US,1660864487
Coahuayana Viejo,18.7333,-103.6833,86.92,66,93,5.91,MX,1660864489
Kruisfontein,-34.0033,24.7314,53.89,91,12,6.04,ZA,1660864492
Yerbogachën,61.2767,108.0108,49.26,98,100,2.64,RU,1660864494
Caravelas,-17.7125,-39.2481,72.12,77,0,10.67,BR,1660864497
Grand Island,40.925,-98.342,82.69,61,40,6.91,US,1660864490
Praia,14.9215,-23.5087,79.34,78,75,11.5,CV,1660864502
East London,-33.0153,27.9116,61.56,72,89,17.4,ZA,1660864504
Micheweni,-4.9667,39.8333,73.81,80,3,9.91,TZ,1660864507
Bengkulu,-3.8004,102.2655,73.99,86,11,4.05,ID,1660864420
Maniitsoq,65.4167,-52.9,42.35,79,20,11.72,GL,1660864511
Rumphi,-11.0186,33.8575,62.64,64,12,4.12,MW,1660864514
Fukuechō,32.6881,128.8419,82.76,94,75,3.44,JP,1660864516
Sambir,49.5183,23.1975,62.87,88,8,5.28,UA,1660864519
Tuatapere,-46.1333,167.6833,51.94,84,29,4.63,NZ,1660864521
Zhezkazgan,47.8043,67.7144,58.89,36,31,15.86,KZ,1660864524
Verkhovazh'ye,60.7472,42.0465,61.07,81,3,4.07,RU,1660864526
Japura,-0.3167,102.35,72.46,97,16,2.39,ID,1660864529
Bayburt,40.2589,40.2278,58.64,90,6,1.5,TR,1660864531
Narsaq,60.9167,-46.05,48.42,56,0,4.56,GL,1660864534
Beatrice,40.2681,-96.747,87.89,40,0,11.5,US,1660864536
Los Altos,37.3852,-122.1141,97.32,49,0,18.41,US,1660864539
Mahajanga,-15.7167,46.3167,69.85,69,12,5.3,MG,1660864541
São João da Barra,-21.6403,-41.0511,73.11,73,35,29.84,BR,1660864543
Castro,-24.7911,-50.0119,54.79,97,100,5.86,BR,1660864546
Inírida,3.8653,-67.9239,78.57,81,73,1.21,CO,1660864548
Namatanai,-3.6667,152.4333,82.2,73,62,4.85,PG,1660864551
Port Elizabeth,-33.918,25.5701,57.31,91,40,3.44,ZA,1660864553
Ziro,27.6333,93.8333,59.36,96,100,1.1,IN,1660864556
Chui,-33.6971,-53.4616,43.86,73,12,11.05,UY,1660864558
Muisne,0.6,-80.0333,74.48,87,100,11.12,EC,1660864561
Poykovskiy,61.2333,73.3333,53.89,87,100,11.18,RU,1660864564
Bac Lieu,9.285,105.7244,78.82,85,96,7.85,VN,1660864566
Taksimo,56.3444,114.8794,50.41,84,100,2.01,RU,1660864569
Nemuro,43.3236,145.575,63.14,96,100,30.74,JP,1660864571
Lorengau,-2.0226,147.2712,82.96,73,29,7.27,PG,1660864574
Marabu,4.4148,114.0089,75.34,88,20,3.44,MY,1660864576
Mandalgovi,45.7625,106.2708,51.98,77,0,9.69,MN,1660864579
Ballina,-28.8667,153.5667,65.79,49,1,5.73,AU,1660864394
Dedza,-14.3779,34.3332,58.77,44,5,2.93,MW,1660864584
Daultala,33.1925,73.1413,78.62,72,8,3.44,PK,1660864586
Shingū,33.7333,135.9833,81.64,62,42,3.33,JP,1660864589
Ribeira Grande,38.5167,-28.7,72.03,65,100,8.55,PT,1660864591
Lethem,3.3803,-59.7968,79.11,76,90,5.99,GY,1660864594
Nouadhibou,20.931,-17.0347,71.49,85,66,16.8,MR,1660864596
Naryan-Mar,67.6713,53.087,60.22,89,40,9.48,RU,1660864599
Rockhampton,-23.3833,150.5,60.69,67,0,0.0,AU,1660864601
Dingle,10.9995,122.6711,75.31,92,100,3.0,PH,1660864604
Ambon City,-3.6954,128.1814,77.14,88,20,3.44,ID,1660864606
Olafsvik,64.8945,-23.7142,51.35,79,100,11.54,IS,1660864609
Cidreira,-30.1811,-50.2056,50.97,62,84,13.82,BR,1660864611
Carnarvon,-24.8667,113.6333,61.77,41,100,18.37,AU,1660864614
Coro,11.4045,-69.6734,81.59,74,0,17.56,VE,1660864616
Hudson Bay,52.85,-102.3842,72.64,54,78,6.02,CA,1660864619
Novoil'insk,51.6829,108.7143,48.85,80,87,6.26,RU,1660864621
Simao,22.7886,100.9748,64.27,98,35,1.68,CN,1660864619
Vasai,19.47,72.8,80.69,88,25,13.69,IN,1660864626
Arauco,-37.2463,-73.3175,47.37,88,1,9.93,CL,1660864628
Zhuhai,22.2769,113.5678,82.18,94,40,4.61,CN,1660864631
Longonjo,-12.9067,15.2533,62.49,20,0,0.51,AO,1660864633
Bowen,-20.0167,148.2333,65.71,69,0,4.81,AU,1660864636
Antofagasta,-23.65,-70.4,56.48,74,37,5.35,CL,1660864610
Teya,60.3778,92.6267,45.97,98,46,1.81,RU,1660864641
Coquimbo,-29.9533,-71.3436,56.93,82,0,0.0,CL,1660864644
Asău,46.4333,26.4,69.28,78,0,5.32,RO,1660864646
Ullapool,57.8987,-5.1604,57.34,85,25,12.28,GB,1660864649
Aswān,24.0934,32.907,89.85,18,1,9.95,EG,1660864652
Ancud,-41.8697,-73.8203,46.78,93,100,9.48,CL,1660864654
Geraldton,-28.7667,114.6,43.21,87,99,6.91,AU,1660864656
Mbuji-Mayi,-6.15,23.6,76.32,56,45,3.11,CD,1660864659
Sayanogorsk,53.0875,91.3997,46.78,73,96,3.24,RU,1660864662
Jacqueville,5.2052,-4.4146,73.72,88,29,8.34,CI,1660864664
Mayya,61.7333,130.2811,56.52,80,59,5.12,RU,1660864667
Pointe Michel,15.25,-61.3833,82.69,78,12,11.63,DM,1660864669
Griffith,41.5284,-87.4237,84.13,52,75,9.22,US,1660864672
Erzin,36.9559,36.2,75.38,88,13,0.89,TR,1660864674
Hirara,24.8,125.2833,86.27,70,20,14.97,JP,1660864677
Vao,-22.6667,167.4833,67.66,58,3,9.46,NC,1660864680
Creel,27.75,-107.6333,63.32,80,100,7.58,MX,1660864682
Muros,42.7762,-9.0603,63.84,79,3,8.37,ES,1660864684
Sisimiut,66.9395,-53.6735,41.68,80,33,6.22,GL,1660864687
Presidencia Roque Sáenz Peña,-26.7852,-60.4388,54.36,26,0,9.33,AR,1660864689
City of San Pedro,14.35,121.0167,80.35,90,100,4.92,PH,1660864676
Lingao,19.9103,109.6859,79.59,85,62,4.54,CN,1660864694
Neiafu,-18.65,-173.9833,77.68,61,40,11.5,TO,1660864696
Carutapera,-1.195,-46.02,77.83,84,50,7.67,BR,1660864699
Faya,18.3851,42.4509,68.11,77,75,4.99,SA,1660864701
Gorontalo,0.5412,123.0595,75.51,91,100,2.19,ID,1660864704
Chihuahua,28.5,-106.0,74.23,66,100,9.98,MX,1660864412
Nome,64.5011,-165.4064,50.07,81,100,12.66,US,1660864608
Sioux Lookout,50.1001,-91.917,68.07,77,75,6.91,CA,1660864710
Esim,4.8699,-2.2405,73.99,87,24,7.63,GH,1660864713
Villa Bruzual,9.3328,-69.1208,78.91,79,5,2.8,VE,1660864715
Zaprudnya,56.5667,37.4333,61.25,71,0,6.53,RU,1660864718
Iquitos,-3.7481,-73.2472,86.04,74,20,3.44,PE,1660864484
Zyryanka,65.75,150.85,64.78,56,21,13.4,RU,1660864723
Mount Gambier,-37.8333,140.7667,49.66,79,20,9.24,AU,1660864725
Santa Inês,-3.6667,-45.38,80.58,63,83,4.5,BR,1660864727
Los Llanos de Aridane,28.6585,-17.9182,69.55,83,100,13.8,ES,1660864730
Guácimo,10.2104,-83.6807,79.54,84,99,4.36,CR,1660864733
Comodoro Rivadavia,-45.8667,-67.5,55.26,47,0,23.02,AR,1660864735
Vostok,46.4856,135.8833,68.2,62,100,2.82,RU,1660864738
San Quintín,30.4833,-115.95,75.15,74,99,14.67,MX,1660864740
Birin,26.8865,88.0718,66.16,83,99,3.69,NP,1660864743
Alpena,45.0617,-83.4327,77.32,61,40,7.0,US,1660864745
Buraidah,26.326,43.975,88.25,10,11,9.01,SA,1660864748
Quatre Cocos,-20.2078,57.7625,70.09,79,2,12.86,MU,1660864751
Anadyr,64.75,177.4833,52.3,57,75,2.24,RU,1660864754
Oriximiná,-1.7656,-55.8661,83.66,43,7,2.86,BR,1660864756
Khatanga,71.9667,102.5,41.38,74,53,6.85,RU,1660864759
Port Moresby,-9.4431,147.1797,78.22,61,100,4.61,PG,1660864761
Perth,-31.9333,115.8333,54.09,88,75,5.75,AU,1660864764
Araouane,18.9048,-3.5265,86.83,50,71,4.09,ML,1660864766
Lufilufi,-13.8745,-171.5986,83.98,62,71,22.24,WS,1660864769
Sitka,57.0531,-135.33,62.49,77,75,4.61,US,1660864771
Darnah,32.767,22.6367,80.38,77,0,15.61,LY,1660864774
Tazmalt,36.3868,4.3989,71.01,78,0,4.38,DZ,1660864776
Khedbrahma,24.0333,73.05,75.4,96,60,8.1,IN,1660864782
Monrovia,6.3005,-10.7969,75.61,81,62,8.39,LR,1660864784
Torbay,47.6666,-52.7314,61.29,97,100,11.5,CA,1660864518
Alofi,-19.0595,-169.9187,76.89,53,40,23.02,NU,1660864789
Busko-Zdrój,50.4708,20.7188,69.1,70,3,7.45,PL,1660864791
Flinders,-34.5833,150.8552,61.38,76,100,4.0,AU,1660864794
Saposoa,-6.934,-76.7716,82.0,66,78,1.21,PE,1660864796
Provideniya,64.3833,-173.3,46.51,81,100,6.71,RU,1660864799
Port Augusta,-32.5,137.7667,49.75,77,1,2.1,AU,1660864801
Bubaque,11.2833,-15.8333,79.99,81,91,16.87,GW,1660864804
Kemijärvi,66.7131,27.4306,56.08,86,98,5.17,FI,1660864806
Esperance,-33.8667,121.9,53.22,77,38,16.13,AU,1660864809
Bambari,5.768,20.6757,70.56,93,98,2.62,CF,1660864811
Carupano,10.6678,-63.2585,79.29,86,8,8.48,VE,1660864814
Cadiz,36.5,-5.75,74.75,61,0,5.61,ES,1660864816
Portland,45.5234,-122.6762,88.39,51,100,3.44,US,1660864800
Kālīnagar,28.6167,80.1,79.61,75,5,5.03,IN,1660864821
Pekalongan,-6.8886,109.6753,76.01,78,39,4.16,ID,1660864824
Kiruna,67.8557,20.2251,50.92,76,100,5.75,SE,1660864826
Loandjili,-4.7561,11.8578,71.1,90,55,7.2,CG,1660864829
Jalu,29.0331,21.5482,82.58,54,0,5.41,LY,1660864831
Toora-Khem,52.4675,96.11,38.44,92,98,1.19,RU,1660864834
San Mateo del Mar,16.2,-95.0,87.12,65,99,12.06,MX,1660864836
Norman Wells,65.282,-126.8329,77.04,20,75,11.5,CA,1660864838
Macheng,31.1783,115.0319,85.6,71,99,3.36,CN,1660864841
Kiryat Gat,31.61,34.7642,75.88,100,0,1.88,IL,1660864843
Tokmak,47.2514,35.7058,71.85,69,52,3.56,UA,1660864846
Pueblo Nuevo,23.3833,-105.3833,65.08,84,99,3.47,MX,1660864849
Montijo,38.7067,-8.9739,76.42,51,0,13.8,PT,1660864852
Karaton,-6.3424,106.1045,71.64,91,11,2.55,ID,1660864854
Dhidhdhoo,6.8833,73.1,81.12,75,72,7.43,MV,1660864856
Ahipara,-35.1667,173.1667,63.55,95,100,19.57,NZ,1660864859
Osoyoos,49.0331,-119.4524,91.81,31,100,5.75,CA,1660864861
La Ronge,55.1001,-105.2842,79.05,34,40,5.75,CA,1660864864
Bayan,46.0833,127.4,65.77,99,100,6.6,CN,1660864866
Ust'-Ishim,57.6935,71.1665,48.02,84,100,6.13,RU,1660864869
Luanda,-8.8368,13.2343,68.0,83,23,6.91,AO,1660864796
Pandan,14.0453,124.1694,80.11,84,100,3.42,PH,1660864874
Vanimo,-2.6741,141.3028,78.8,86,42,3.36,PG,1660864876
Nadym,65.5333,72.5167,47.77,89,100,5.68,RU,1660864879
Mapiripán,2.8892,-72.1256,79.45,75,83,5.3,CO,1660864881
Rio Grande,-32.035,-52.0986,48.31,63,39,16.35,BR,1660864884
Mareeba,-17.0,145.4333,67.48,71,4,2.8,AU,1660864886
Marrakesh,31.6315,-8.0083,82.47,39,0,2.3,MA,1660864700
Solnechnyy,50.7214,136.6319,66.65,64,100,2.35,RU,1660864891
Rocha,-34.4833,-54.3333,41.81,81,9,10.27,UY,1660864893
Lavrentiya,65.5833,-171.0,42.21,88,100,7.78,RU,1660864896
Kyren,51.6828,102.1408,46.85,91,90,0.85,RU,1660864898
Ixtapa,20.7,-105.2,86.23,70,75,10.36,MX,1660864901
Adiaké,5.2863,-3.304,73.17,88,41,5.91,CI,1660864903
Klaksvík,62.2266,-6.589,52.72,90,86,29.04,FO,1660864906
Touros,-5.1989,-35.4608,75.83,75,47,17.07,BR,1660864908
Karratha,-20.7377,116.8463,65.68,30,61,20.71,AU,1660864911
Marsh Harbour,26.5412,-77.0636,85.42,67,51,5.12,BS,1660864913
Storforshei,66.4043,14.5233,60.58,63,100,9.22,NO,1660864915
Mahabalipuram,12.6264,80.1722,83.05,77,89,13.96,IN,1660864918
Itaituba,-4.2761,-55.9836,83.17,41,4,1.48,BR,1660864921
Deputatsky,69.3,139.9,49.59,80,79,3.85,RU,1660864923
Labytnangi,66.6572,66.4183,56.8,58,99,12.33,RU,1660864925
Ambilobe,-13.2,49.05,64.87,85,16,3.4,MG,1660864928
Gonzales,30.2385,-90.9201,86.99,73,0,4.61,US,1660864908
Uauá,-9.8414,-39.4817,72.54,52,8,14.97,BR,1660864933
Ayorou,14.7308,0.9174,90.55,48,26,8.1,NE,1660864935
Alice,27.7523,-98.0697,93.09,59,0,13.8,US,1660864938
Abhā,18.2164,42.5053,67.82,82,0,10.36,SA,1660864940
Boa Vista,2.8197,-60.6733,80.58,78,40,4.61,BR,1660864942
Manaus,-3.1019,-60.025,88.3,66,0,4.61,BR,1660864654
Poboru,44.6667,24.5,70.93,63,0,4.59,RO,1660864947
Port Blair,11.6667,92.75,81.45,81,100,16.69,IN,1660864950
San Cristobal,7.7669,-72.225,72.14,66,25,2.91,VE,1660864952
Kichera,55.9375,110.0997,46.98,96,100,7.11,RU,1660864955
Broken Hill,-31.95,141.4333,48.43,69,0,14.05,AU,1660864957
Felanitx,39.4696,3.1483,72.14,53,1,3.94,ES,1660864959
Kochi,9.9399,76.2602,80.02,86,100,6.35,IN,1660864962
Paamiut,61.994,-49.6678,43.0,82,0,15.57,GL,1660864964
Bauchi,10.5,10.0,69.15,96,100,3.33,NG,1660864967
Pohrebyshche,49.4864,29.2636,65.44,72,0,6.87,UA,1660864969
Lata,40.1629,-8.3327,61.95,53,3,2.82,PT,1660864972
Westport,41.1415,-73.3579,80.15,63,75,5.99,US,1660864795
Killybegs,54.6333,-8.45,57.15,78,55,20.45,IE,1660864976
Elliot,-31.3333,27.85,38.57,72,7,3.8,ZA,1660864979
Celestún,20.8667,-90.4,82.22,76,69,14.14,MX,1660864883
Zhangye,38.9342,100.4517,66.9,48,53,2.89,CN,1660864983
Kutum,14.2,24.6667,72.21,65,89,7.4,SD,1660864985
Vila Franca do Campo,37.7167,-25.4333,71.2,82,45,6.44,PT,1660864988
Dzaoudzi,-12.7887,45.2699,71.49,88,0,2.3,YT,1660864990
Ketchikan,55.3422,-131.6461,70.27,73,0,9.22,US,1660864993
Banda Aceh,5.5577,95.3222,78.93,83,100,7.43,ID,1660864995
Belyy Yar,53.6039,91.3903,42.85,83,59,2.24,RU,1660864997
Cleburne,32.3476,-97.3867,89.85,55,20,9.22,US,1660865000
Saint George,37.1041,-113.5841,92.25,36,0,18.41,US,1660865002
Durazno,-33.4131,-56.5006,41.23,61,11,8.3,UY,1660865004
Teknāf,20.8624,92.3058,78.35,91,91,17.85,BD,1660865007
Weatherford,32.7593,-97.7972,88.54,57,95,1.01,US,1660865009
Koutiala,12.3917,-5.4642,76.23,80,52,6.71,ML,1660865012
Shitanjing,39.2342,106.3439,69.84,34,78,3.98,CN,1660865014
Clarence Town,-32.5833,151.7833,62.82,63,100,3.0,AU,1660865016
Maricá,-22.9194,-42.8186,80.51,63,6,11.83,BR,1660865019
São Filipe,14.8961,-24.4956,77.97,76,31,5.88,CV,1660865021
Fortuna,40.5982,-124.1573,71.92,79,20,14.97,US,1660865023
Pilar,-9.5972,-35.9567,73.33,88,49,3.53,BR,1660865019
Kangaatsiaq,68.3065,-53.4641,39.74,87,100,6.15,GL,1660865028
Kjøpsvik,68.097,16.3742,53.47,68,86,9.55,NO,1660865030
Santa Isabel Rio Negro,-0.4139,-65.0192,78.22,84,95,2.37,BR,1660865032
Valparaíso,-33.0393,-71.6273,64.04,58,0,6.91,CL,1660865035
Isangel,-19.55,169.2667,75.33,78,20,10.98,VU,1660864968
Wadi Maliz,36.4681,8.5495,80.26,78,22,5.82,TN,1660865039
Yamada,39.4667,141.95,73.94,69,3,4.72,JP,1660865042
Laiyang,36.9758,120.7136,75.06,98,100,4.16,CN,1660865044
Soyo,-6.1349,12.3689,70.21,92,1,5.66,AO,1660865046
Tashtagol,52.7657,87.8894,45.19,99,100,4.21,RU,1660865049
Tchibanga,-2.85,11.0333,69.75,85,51,3.18,GA,1660865051
Tiznit Province,29.5833,-9.5,75.69,50,0,1.57,MA,1660865054
Atar,20.5169,-13.0499,88.84,43,100,5.03,MR,1660865056
Moosomin,50.1333,-101.6677,76.05,43,47,10.31,CA,1660865058
Seymchan,62.8833,152.4333,60.62,68,85,6.85,RU,1660865061
Charcas,23.1333,-101.1167,76.98,35,39,15.14,MX,1660865063
Fairview,40.8126,-73.999,85.55,41,0,13.8,US,1660865065
Ukiah,39.1502,-123.2078,104.43,20,0,10.36,US,1660865047
Coyhaique,-45.5752,-72.0662,46.35,81,100,4.61,CL,1660864958
Shimoda,34.6667,138.95,84.11,66,44,4.65,JP,1660865072
Ossora,59.2353,163.0719,49.89,85,100,2.53,RU,1660865075
Mahon,39.8885,4.2658,68.56,83,20,4.61,ES,1660865152
Qrendi,35.8347,14.4583,85.1,79,0,8.05,MT,1660865154
Talnakh,69.4865,88.3972,40.21,76,14,2.19,RU,1660865157
Trairi,-3.2778,-39.2689,78.51,78,98,10.63,BR,1660864934
Mīzan Teferī,6.9833,35.5833,60.84,96,89,2.71,ET,1660865161
Anking,30.5092,117.0506,86.65,66,75,4.27,CN,1660865164
Sola,-13.8833,167.55,79.75,78,20,15.95,VU,1660865166
Agirish,61.9247,63.0231,49.55,86,80,5.32,RU,1660865168
Santa Maria,-29.6842,-53.8069,47.5,57,75,4.61,BR,1660865171
Nishihara,26.1842,127.7558,86.05,79,40,14.97,JP,1660865173
Mil'kovo,54.7167,158.6167,58.69,68,33,2.13,RU,1660865175
Codrington,-38.2667,141.9667,45.77,85,11,11.16,AU,1660865178
Springbok,-29.6643,17.8865,44.94,87,79,5.28,ZA,1660865180
Nizwá,22.9333,57.5333,88.74,49,91,3.04,OM,1660865183
Shenjiamen,29.9576,122.298,81.68,90,53,21.54,CN,1660865185
Merano,46.6682,11.1595,72.57,95,76,3.09,IT,1660865187
Berdigestyakh,62.0989,126.6992,51.49,92,89,5.91,RU,1660865190
Sumkino,58.1108,68.3244,48.16,92,100,5.93,RU,1660865192
Odienné,9.51,-7.5692,71.74,94,5,2.55,CI,1660865194
Agüimes,27.9054,-15.4461,70.43,73,75,21.85,ES,1660865197
Bátonyterenye,47.9696,19.8408,73.94,51,66,3.02,HU,1660865199
Ust-Nera,64.5667,143.2,57.78,80,92,5.88,RU,1660865201
Boden,65.8252,21.6886,59.0,84,94,1.1,SE,1660865204
Santa Cruz de la Sierra,-17.8,-63.1667,69.85,26,75,18.41,BO,1660864914
Kumul,42.8,93.45,71.35,29,0,3.13,CN,1660865208
Ghanzi,-21.5667,21.7833,52.88,41,88,15.08,BW,1660865210
Mercedes,-34.6515,-59.4307,43.65,49,3,6.51,AR,1660865213
Adrar,20.5022,-10.0711,86.29,48,88,9.28,MR,1660865215
Arecibo,18.4724,-66.7157,85.26,81,100,3.0,PR,1660864967
Peruíbe,-24.32,-46.9983,68.58,79,76,9.17,BR,1660865220
Russell,32.3502,-85.1999,81.68,94,20,3.44,US,1660865222
Nicosia,35.1667,33.3667,78.49,78,0,4.61,CY,1660865224
Sinnamary,5.3833,-52.95,79.09,85,7,11.77,GF,1660865227
Pervomayskoye,43.919,46.7102,78.53,49,0,14.9,RU,1660865233
Zaysan,47.4667,84.8667,49.3,60,3,5.53,KZ,1660865236
Swan Hill,-35.3378,143.5544,47.26,84,2,10.02,AU,1660865238
Mitú,1.1983,-70.1733,80.06,71,98,1.9,CO,1660865240
Jacareacanga,-6.2222,-57.7528,84.92,36,5,0.45,BR,1660865243
Straumen,63.8709,11.2999,62.6,86,100,4.03,NO,1660865245
Gravdal,68.1214,13.5031,55.58,69,100,11.9,NO,1660865247
Bridlington,54.0831,-0.1919,66.88,87,100,14.12,GB,1660865250
Tessalit,20.1986,1.0114,84.31,42,74,4.85,ML,1660865252
Domoni,-12.2569,44.5319,73.72,83,31,4.76,KM,1660865255
College,64.8569,-147.8028,66.2,45,75,3.44,US,1660865257
Manicoré,-5.8092,-61.3003,82.35,89,0,1.14,BR,1660865259
Clovis,36.8252,-119.7029,106.61,22,20,6.91,US,1660865092
Margate,51.3813,1.3862,63.88,85,47,3.0,GB,1660865264
Nantucket,41.2835,-70.0995,75.34,78,0,14.97,US,1660865266
Constitución,-35.3333,-72.4167,50.74,79,0,10.98,CL,1660865269
Chimoré,-16.9833,-65.1333,63.73,91,100,2.13,BO,1660865271
Viet Tri,21.3019,105.4308,80.55,94,94,0.76,VN,1660865048
Putai,46.6579,1.9863,65.59,68,58,7.61,FR,1660865275
Luba,3.4568,8.5547,76.8,85,100,6.85,GQ,1660865278
Muyezerskiy,63.9333,31.65,63.9,92,100,4.43,RU,1660865280
Bhawānipatna,19.9,83.1667,75.06,97,100,2.15,IN,1660865283
Windhoek,-22.5594,17.0832,47.1,36,58,5.75,NA,1660865099
Chubbuck,42.9208,-112.4661,95.14,21,40,14.97,US,1660865287
Pacific Grove,36.6177,-121.9166,81.25,85,0,12.66,US,1660865289
Saint-Augustin,51.226,-58.6502,58.19,95,100,12.21,CA,1660865292
Lompoc,34.6391,-120.4579,88.02,71,0,17.27,US,1660865162
Poplar Bluff,36.757,-90.3929,85.17,51,0,5.01,US,1660865296
Sasebo,33.1592,129.7228,82.38,85,62,4.27,JP,1660865299
Ulverstone,-41.15,146.1667,51.21,70,5,8.28,AU,1660865301
Witu,-2.3889,40.4382,73.56,86,4,10.49,KE,1660865303
Aného,6.2333,1.6,75.18,86,100,12.48,TG,1660865306
Si Racha,13.1737,100.9311,86.13,78,90,7.2,TH,1660865308
Diplo,24.4667,69.584,80.22,90,96,12.03,PK,1660865310
Lesnoye,58.2841,35.5158,61.36,74,18,4.88,RU,1660865313
Limbe,4.0242,9.2149,75.27,87,100,6.78,CM,1660865315
Taebla,58.9547,23.7419,70.99,75,97,6.64,EE,1660865317
Winburg,-28.518,27.0093,45.43,37,40,11.52,ZA,1660865320
Kâhta,37.7855,38.6237,83.57,37,0,1.97,TR,1660865322
Albion,42.2431,-84.753,78.84,55,0,6.91,US,1660865324
Bilibino,68.0546,166.4372,55.08,38,0,3.76,RU,1660865327
Pauini,-7.7136,-66.9764,80.44,69,82,2.04,BR,1660865329
Bonavista,48.6499,-53.1147,59.23,96,100,16.31,CA,1660865331
Yatou,37.15,122.3833,77.81,96,100,14.76,CN,1660865334
Piet Retief,-27.0071,30.8132,49.48,83,85,4.21,ZA,1660865336
Leningradskiy,69.3833,178.4167,39.85,76,38,13.42,RU,1660865339
Belmonte,-15.8631,-38.8828,72.07,83,94,11.03,BR,1660865341
Bondo,3.8146,23.6866,67.93,99,89,1.63,CD,1660865343
Necochea,-38.5473,-58.7368,41.49,66,9,10.25,AR,1660865346
Alugan,12.2188,125.4808,78.75,86,100,3.18,PH,1660865348
Riyadh,24.6877,46.7219,89.74,12,63,9.91,SA,1660865241
Henties Bay,-22.116,14.2845,52.79,93,79,10.85,NA,1660865353
Kavaratti,10.5669,72.642,81.48,77,88,10.4,IN,1660865355
Makat,47.6469,53.3463,79.66,28,30,12.37,KZ,1660865357
Concepción del Oro,24.6333,-101.4167,72.91,41,87,5.21,MX,1660865360
Mahon,39.8885,4.2658,68.56,83,20,4.61,ES,1660865362
Belaya Gora,68.5333,146.4167,62.78,58,5,11.97,RU,1660865365
Zhangaözen,43.3,52.8,75.67,22,0,13.85,KZ,1660865367
Machilipatnam,16.1667,81.1333,82.13,79,100,7.27,IN,1660865324
Bardsīr,29.9227,56.5743,67.26,14,5,2.84,IR,1660865371
Kidal,18.4411,1.4078,89.98,35,79,11.9,ML,1660865374
Kungurtug,50.5994,97.5228,37.81,93,69,1.79,RU,1660865376
Verkhoyansk,67.5447,133.385,59.11,73,93,2.51,RU,1660865378
Demyansk,57.643,32.466,66.16,70,50,5.93,RU,1660865381
Puerto Nariño,-3.7703,-70.3831,80.2,73,99,1.01,CO,1660865383
Takoradze,4.8845,-1.7554,73.96,86,32,9.33,GH,1660865386
Sosnovo-Ozerskoye,52.5249,111.5418,47.61,67,100,12.97,RU,1660865388
Broome,42.2506,-75.833,74.86,72,75,6.91,US,1660865390
Fairbanks,64.8378,-147.7164,66.22,45,75,3.44,US,1660865393
Beloha,-25.1667,45.05,60.87,69,7,5.32,MG,1660865395
Saint-Pierre,-21.3393,55.4781,70.92,71,40,5.75,RE,1660865397
Carbondale,37.7273,-89.2168,85.05,55,40,5.75,US,1660865400
Daru,-9.0763,143.2092,77.83,66,100,13.02,PG,1660865402
